{
  "type": "FeatureCollection",
  "features": [  
  {
    "type": "Feature",
    "geometry": {
      "type": "Point",
      "coordinates": [-97.103456,33.135663]
    },
    "properties": {
      "title": "GUYER H S",
      "description": "<div style='color:blue;'>This should be blue.</div>",
      "marker-color": "#fc4353",
      "marker-size": "large",
      "marker-symbol": "school",
      "street": "7501 TEASLEY LN",
      "city": "DENTON",
      "state": "TX",
      "zip": "76210",
      "county": "DENTON COUNTY", 
      "type": "Public",
      "district": "DENTON ISD"
    }
  },
  {
    "type": "Feature",
    "geometry": {
      "type": "Point",
      "coordinates": [-97.122342,33.115626]
    },
    "properties": {
      "title": "HARPOOL MIDDLE",
      "description": "<div style='color:red;'>This should be red.</div>",
      "marker-color": "#fc4353",
      "marker-size": "large",
      "marker-symbol": "school",
      "street": "9601 STACEE LN",
      "city": "ARGYLE",
      "state": "TX",
      "zip": "76266",
      "county": "DENTON COUNTY", 
      "type": "Public",
      "district": "DENTON ISD"
    }
  },
  {
    "type": "Feature",
    "geometry": {
      "type": "Point",
      "coordinates": [-97.120801,33.146085]
    },
    "properties": {
      "title": "MCNAIR EL",
      "description": "<div style='color:green;'>This should be green.</div>",
      "marker-color": "#fc4353",
      "marker-size": "large",
      "marker-symbol": "school",
      "street": "1212 HICKORY CREEK RD",
      "city": "DENTON",
      "state": "TX",
      "zip": "76210",
      "county": "DENTON COUNTY", 
      "type": "Public",
      "district": "DENTON ISD"
      
    },
  {
    "type": "Feature",
    "geometry": {
      "type": "Point",
      "coordinates": [-97.073179,33.160026]
    },
    "properties": {
      "title": "CORINTH MONTESSORI SCHOOL",
      "description": "<div style='color:green;'>This should be green.</div>",
      "marker-color": "#fc4353",
      "marker-size": "large",
      "marker-symbol": "school",
      "street": "1300 E PECAN CREEK CIR",
      "city": "CORINTH",
      "state": "TX",
      "zip": "76210",
      "county": "DENTON COUNTY", 
      "type": "Private",
      "district": ""
      
    },
  {
    "type": "Feature",
    "geometry": {
      "type": "Point",
      "coordinates": [-97.073179,33.160026]
    },
    "properties": {
      "title": "LIBERTY CHRISTIAN SCHOOL",
      "description": "<div style='color:green;'>This should be green.</div>",
      "marker-color": "#fc4353",
      "marker-size": "large",
      "marker-symbol": "school",
      "street": "1301 S US HIGHWAY 377",
      "city": "ARGYLE",
      "state": "TX",
      "zip": "76226",
      "county": "DENTON COUNTY", 
      "type": "Private",
      "district": ""
      
    }
  }
 ]
}